{
"type": "FeatureCollection",
"name": "sinopharm",
"crs": { "type": "name", "properties": { "name": "urn:ogc:def:crs:OGC:1.3:CRS84" } },
"features": [
{ "type": "Feature", "properties": { "id": 1, "vaccine": "სინოფარმი", "hospital": "ქირურგიის ეროვნული ცენტრი", "address": "ლუბლიანას ქ.  29" }, "geometry": { "type": "Point", "coordinates": [ 44.779455929169224, 41.774513238251551 ] } },
{ "type": "Feature", "properties": { "id": 4, "vaccine": "სინოფარმი", "hospital": "ომის ვეტერანთა ჰოსპიტალი", "address": "ს.  კედიას ქ.  7" }, "geometry": { "type": "Point", "coordinates": [ 44.787065536366391, 41.731853913660011 ] } },
{ "type": "Feature", "properties": { "id": 5, "vaccine": "სინოფარმი", "hospital": "წყნეთის საექიმო ამბულატორია", "address": "დ.  ამილახვარის ქ.  19" }, "geometry": { "type": "Point", "coordinates": [ 44.704279015052919, 41.69617098980553 ] } },
{ "type": "Feature", "properties": { "id": 6, "vaccine": "სინოფარმი", "hospital": "Krol Medical Corporation", "address": "ი.  ჭავჭავაძის გამზ.  44" }, "geometry": { "type": "Point", "coordinates": [ 44.766134513707726, 41.709741546401659 ] } },
{ "type": "Feature", "properties": { "id": 7, "vaccine": "სინოფარმი", "hospital": "თბილისის სამკურნალო-პროფილაქტიკური ცენტრი", "address": "ფაღავას ქ.  25" }, "geometry": { "type": "Point", "coordinates": [ 44.818148367024172, 41.691843543517386 ] } },
{ "type": "Feature", "properties": { "id": 3, "vaccine": "სინოფარმი", "hospital": "Express Medical Service", "address": "ჰუალინგის სავაჭრო ცენტრი" }, "geometry": { "type": "Point", "coordinates": [ 44.860209397975495, 41.707477871228825 ] } },
{ "type": "Feature", "properties": { "id": 8, "vaccine": "სინოფარმი", "hospital": "ტლ მედიქალ", "address": "ბერი გაბრიელ სალოსის ქ.  55" }, "geometry": { "type": "Point", "coordinates": [ 44.846310853360734, 41.676047797986136 ] } },
{ "type": "Feature", "properties": { "id": 9, "vaccine": "სინოფარმი", "hospital": "კარდუ მედი", "address": "წინანდლის ქ.  9" }, "geometry": { "type": "Point", "coordinates": [ 44.828488538648173, 41.689434345358585 ] } },
{ "type": "Feature", "properties": { "id": 10, "vaccine": "სინოფარმი", "hospital": "თბილისის #4 საოჯახო მედიცინის ცენტრი", "address": "ვაზისუბანი - IV მ/რ I კვ." }, "geometry": { "type": "Point", "coordinates": [ 44.851315943967379, 41.701299673001714 ] } },
{ "type": "Feature", "properties": { "id": 2, "vaccine": "სინოფარმი", "hospital": "სამგორი მედი", "address": "კახეთის გზატკეცილი 23" }, "geometry": { "type": "Point", "coordinates": [ 44.859620938680884, 41.686946790603692 ] } },
{ "type": "Feature", "properties": { "id": 11, "vaccine": "სინოფარმი", "hospital": "თბილისის #19 მოზრდილთა პოლიკლინიკა", "address": "მოსკოვის გამზ.  23" }, "geometry": { "type": "Point", "coordinates": [ 44.868886163001449, 41.680306494447649 ] } },
{ "type": "Feature", "properties": { "id": 12, "vaccine": "სინოფარმი", "hospital": "საოჯახო მედიცინის ცენტრი", "address": "იუნკერთა ქ.  1" }, "geometry": { "type": "Point", "coordinates": [ 44.838481724647231, 41.680742291503734 ] } },
{ "type": "Feature", "properties": { "id": 13, "vaccine": "სინოფარმი", "hospital": "ჯანმრთელობა", "address": "ზემო ფონიჭალა - მე-20 კორპ." }, "geometry": { "type": "Point", "coordinates": [ 44.893735998820489, 41.643746157880535 ] } },
{ "type": "Feature", "properties": { "id": 14, "vaccine": "სინოფარმი", "hospital": "ბიჯი უნიმედი", "address": "რუსთავის გზატკეცილი 28" }, "geometry": { "type": "Point", "coordinates": [ 44.907521950140598, 41.65115216460083 ] } },
{ "type": "Feature", "properties": { "id": 15, "vaccine": "სინოფარმი", "hospital": "საოჯახო მედიცინის ცენტრი 'აფხაზეთი'", "address": "რ.  ლაღიძის ქ.  8" }, "geometry": { "type": "Point", "coordinates": [ 44.797030397008349, 41.70249454456448 ] } },
{ "type": "Feature", "properties": { "id": 16, "vaccine": "სინოფარმი", "hospital": "კამილიელთა სამედიცინო ცენტრი", "address": "ანაპის 414-ე დივიზიის ქ.  11" }, "geometry": { "type": "Point", "coordinates": [ 44.81277929557826, 41.7733645957777 ] } },
{ "type": "Feature", "properties": { "id": 17, "vaccine": "სინოფარმი", "hospital": "ბავშვთა და მოზრდილთა ჯანმრთელობის ცენტრი", "address": "ს.  ბუაჩიძის ქ.  12" }, "geometry": { "type": "Point", "coordinates": [ 44.794770033508549, 41.772599878947425 ] } },
{ "type": "Feature", "properties": { "id": 18, "vaccine": "სინოფარმი", "hospital": "Krol Medical Corporation", "address": "ნაქალაევის ქ.  3" }, "geometry": { "type": "Point", "coordinates": [ 44.823429629862922, 41.733333578603833 ] } },
{ "type": "Feature", "properties": { "id": 19, "vaccine": "სინოფარმი", "hospital": "ევექსის საბურთალოს პოლიკლინიკა", "address": "ვაჟა-ფშაველას გამზ.  40" }, "geometry": { "type": "Point", "coordinates": [ 44.747868907155912, 41.725330298706204 ] } },
{ "type": "Feature", "properties": { "id": 20, "vaccine": "სინოფარმი", "hospital": "ევექსის ვაქცინაციის ცენტრი", "address": "დ.  თავხელიძის ქ.  1" }, "geometry": { "type": "Point", "coordinates": [ 44.732678018121582, 41.722958295230654 ] } },
{ "type": "Feature", "properties": { "id": 21, "vaccine": "სინოფარმი", "hospital": "მედ ინვესტმენტი", "address": "მარიჯანის ქ.  2ბ" }, "geometry": { "type": "Point", "coordinates": [ 44.730080582871899, 41.721922366063012 ] } },
{ "type": "Feature", "properties": { "id": 22, "vaccine": "სინოფარმი", "hospital": "ლილო მოლის ტერიტორია", "address": "კახეთის გზატკეცილი 112" }, "geometry": { "type": "Point", "coordinates": [ 44.999873944560271, 41.694770841098602 ] } },
{ "type": "Feature", "properties": { "id": 23, "vaccine": "სინოფარმი", "hospital": "ლილოს სამედიცინო ცენტრი", "address": "ფრანგულიანის ქ.  19" }, "geometry": { "type": "Point", "coordinates": [ 44.980391763919286, 41.682823922160054 ] } },
{ "type": "Feature", "properties": { "id": 24, "vaccine": "სინოფარმი", "hospital": "ოჯახის მკურნალი", "address": "კ.  ხეთაგუროვის ქ.  6" }, "geometry": { "type": "Point", "coordinates": [ 44.807743047078731, 41.701733213037869 ] } },
{ "type": "Feature", "properties": { "id": 25, "vaccine": "სინოფარმი", "hospital": "გერმანული ჰოსპიტალი", "address": "კოსმონავტების სანაპირო 45ა" }, "geometry": { "type": "Point", "coordinates": [ 44.775095240438986, 41.734073398293802 ] } },
{ "type": "Feature", "properties": { "id": 26, "vaccine": "სინოფარმი", "hospital": "ტექნიკური უნივერსიტეტის მე-6 კორპ.", "address": "სააკაძის მოედანი / მ.  კოსტავას ქ.  77" }, "geometry": { "type": "Point", "coordinates": [ 44.777607922887903, 41.724565092790002 ] } }
]
}
